[
    {
      "id": "Location Inspection Survey_1040 Roadside Phattanakarn.pdf",
      "name": "สาขา Central World",
      "address": "999/9 Rama I Rd, Pathum Wan, Bangkok 10330",
      "hours": "10:00 - 22:00 น.",
      "phone": "02-123-4567",
      "transport": "BTS สถานีสยาม"
    },
    {
      "id": "2ZXYmnoPQRSTuVw45678",
      "name": "สาขา Terminal 21",
      "address": "88 Terminal 21 Sukhumvit, Khlong Toei, Bangkok 10110",
      "hours": "10:00 - 22:00 น.",
      "phone": "02-234-5678",
      "transport": "BTS สถานีอโศก"
    },
    {
      "id": "3PDFidEXAMPLE456789",
      "name": "สาขา MBK Center",
      "address": "444 Phaya Thai Rd, Pathum Wan, Bangkok 10330",
      "hours": "10:00 - 22:00 น.",
      "phone": "02-345-6789",
      "transport": "BTS สถานีสนามกีฬาแห่งชาติ"
    },
    {
      "id": "4EXAMPLE789012345",
      "name": "สาขา Siam Paragon",
      "address": "991 Rama I Rd, Pathum Wan, Bangkok 10330",
      "hours": "10:00 - 22:00 น.",
      "phone": "02-456-7890",
      "transport": "BTS สถานีสยาม"
    },
    {
      "id": "5SAMPLEID678901234",
      "name": "สาขา Emquartier",
      "address": "693 Sukhumvit Rd, Khlong Tan Nuea, Watthana, Bangkok 10110",
      "hours": "10:00 - 22:00 น.",
      "phone": "02-567-8901",
      "transport": "BTS สถานีพร้อมพงษ์"
    }
  ]
